[
{
"idCarPark": 6028,
"name": "ul. Szlak 47-73",
"lon": "19.941498",
"lat": "50.070932",
"allSpacesNumber": 74,
"freeSpacesNumber": 18,
"lowThresholdPercentage": 30,
"mediumThresholdPercentage": 70,
"externalType": null,
"disabled": false,
"fileName": "SzlakOd47Do73.json",
"serviced": true,
"manuallyMonitored": false
},
{
"idCarPark": 6032,
"name": "ul. Warszawska",
"lon": "19.943361",
"lat": "50.068914",
"allSpacesNumber": 43,
"freeSpacesNumber": 7,
"lowThresholdPercentage": 30,
"mediumThresholdPercentage": 70,
"externalType": null,
"disabled": false,
"fileName": "Warszawska.json",
"serviced": true,
"manuallyMonitored": false
},
{
"idCarPark": 6034,
"name": "Plac Matejki",
"lon": "19.94217",
"lat": "50.066728",
"allSpacesNumber": 19,
"freeSpacesNumber": 6,
"lowThresholdPercentage": 30,
"mediumThresholdPercentage": 70,
"externalType": null,
"disabled": false,
"fileName": "Matejki.json",
"serviced": true,
"manuallyMonitored": false
},
{
"idCarPark": 6036,
"name": "ul. Ogrodowa",
"lon": "19.944176",
"lat": "50.06867",
"allSpacesNumber": 10,
"freeSpacesNumber": 2,
"lowThresholdPercentage": 30,
"mediumThresholdPercentage": 70,
"externalType": null,
"disabled": false,
"fileName": "Ogrodowa.json",
"serviced": true,
"manuallyMonitored": false
},
{
"idCarPark": 6325,
"name": "Parking P+R Czerwone Maki",
"lon": "19.890264",
"lat": "50.018687",
"allSpacesNumber": 0,
"freeSpacesNumber": 0,
"lowThresholdPercentage": 30,
"mediumThresholdPercentage": 70,
"externalType": "parkride",
"disabled": false,
"fileName": "",
"serviced": false,
"manuallyMonitored": false
},
{
"idCarPark": 6326,
"name": "Parking P+R Gie³da Balicka",
"lon": "19.876282",
"lat": "50.081495",
"allSpacesNumber": 0,
"freeSpacesNumber": 0,
"lowThresholdPercentage": 30,
"mediumThresholdPercentage": 70,
"externalType": "parkride",
"disabled": false,
"fileName": "",
"serviced": false,
"manuallyMonitored": false
},
{
"idCarPark": 6342,
"name": "ul. Szlak 27-45",
"lon": "19.937660",
"lat": "50.071392",
"allSpacesNumber": 26,
"freeSpacesNumber": 10,
"lowThresholdPercentage": 30,
"mediumThresholdPercentage": 70,
"externalType": null,
"disabled": false,
"fileName": "SzlakOd27Do45.json",
"serviced": true,
"manuallyMonitored": false
},
{
"idCarPark": 6350,
"name": "Naziemny parking \"Stare Podgórze\"",
"lon": "19.946181",
"lat": "50.042558",
"allSpacesNumber": 0,
"freeSpacesNumber": 116,
"lowThresholdPercentage": 30,
"mediumThresholdPercentage": 70,
"externalType": "HCMS",
"disabled": false,
"fileName": null,
"serviced": false,
"manuallyMonitored": false
},
{
"idCarPark": 6368,
"name": "Podziemny parking \"Przy Muzeum\"",
"lon": "19.9242538",
"lat": "50.0595618",
"allSpacesNumber": 0,
"freeSpacesNumber": 53,
"lowThresholdPercentage": 30,
"mediumThresholdPercentage": 70,
"externalType": "HCMS",
"disabled": false,
"fileName": null,
"serviced": false,
"manuallyMonitored": false
}
]